{
    "errors": [],
    "locations": [{
        "state": "CA",
        "locType": "branch",
        "label": "Valencia and 14th Street",
        "address": "299 Valencia St",
        "city": "San Francisco",
        "zip": "94103",
        "name": "Valencia and 14th Street",
        "lat": "37.768341",
        "lng": "-122.421761",
        "bank": "Chase",
        "type": "Freestanding",
        "lobbyHrs": ["", "9:00-6:00", "9:00-6:00", "9:00-6:00",
            "9:00-6:00", "9:00-6:00", "9:00-4:00"
        ],
        "driveUpHrs": ["", "", "", "", "", "", ""],
        "atms": 4,
        "services": [],
        "phone": "4157010408",
        "distance": 0.1499999999999999944488848768742172978818416595458984375
    }, {
        "state": "CA",
        "locType": "atm",
        "label": "Cvs",
        "address": "499 HAIGHT ST",
        "city": "SAN FRANCISCO",
        "zip": "94117",
        "name": "Cvs",
        "lat": "37.772130",
        "lng": "-122.430164",
        "bank": "Chase",
        "access": "LOBBY",
        "services": ["Cash Dispenser", "Audio-assisted ATM", "Limited"],
        "languages": [""],
        "distance": 0.56999999999999995115018691649311222136020660400390625
    }, {
        "state": "CA",
        "locType": "branch",
        "label": "Market and 8th",
        "address": "1201 Market St",
        "city": "San Francisco",
        "zip": "94103",
        "name": "Market and 8th",
        "lat": "37.778535",
        "lng": "-122.414897",
        "bank": "Chase",
        "type": "Freestanding",
        "lobbyHrs": ["", "9:00-6:00", "9:00-6:00", "9:00-6:00",
            "9:00-6:00", "9:00-6:00", "9:00-4:00"
        ],
        "driveUpHrs": ["", "", "", "", "", "", ""],
        "atms": 4,
        "services": [],
        "phone": "4152418700",
        "distance": 0.65000000000000002220446049250313080847263336181640625
    }, {
        "state": "CA",
        "locType": "branch",
        "label": "Market and 15th",
        "address": "2112 15th St",
        "city": "San Francisco",
        "zip": "94114",
        "name": "Market and 15th",
        "lat": "37.766349",
        "lng": "-122.431453",
        "bank": "Chase",
        "type": "Freestanding",
        "lobbyHrs": ["", "9:00-6:00", "9:00-6:00", "9:00-6:00",
            "9:00-6:00", "9:00-6:00", "9:00-4:00"
        ],
        "driveUpHrs": ["", "", "", "", "", "", ""],
        "atms": 2,
        "services": [],
        "phone": "4153559340",
        "distance": 0.67000000000000003996802888650563545525074005126953125
    }, {
        "state": "CA",
        "locType": "branch",
        "label": "Bryant and 9th",
        "address": "555 9th St",
        "city": "San Francisco",
        "zip": "94103",
        "name": "Bryant and 9th",
        "lat": "37.770983",
        "lng": "-122.407546",
        "bank": "Chase",
        "type": "Freestanding",
        "lobbyHrs": ["", "9:00-6:00", "9:00-6:00", "9:00-6:00",
            "9:00-6:00", "9:00-6:00", "9:00-4:00"
        ],
        "driveUpHrs": ["", "", "", "", "", "", ""],
        "atms": 6,
        "services": [],
        "phone": "4152416812",
        "distance": 0.68000000000000004884981308350688777863979339599609375
    }, {
        "state": "CA",
        "locType": "atm",
        "label": "Valencia And 19th",
        "address": "810 VALENCIA ST",
        "city": "SAN FRANCISCO",
        "zip": "94110",
        "name": "Valencia And 19th",
        "lat": "37.759935",
        "lng": "-122.421383",
        "bank": "Chase",
        "access": "VESTIBULE",
        "services": ["Open 24 hours", "Deposit ATM",
            "Audio-assisted ATM", "Deposit-friendly"
        ],
        "languages": ["C", "E", "F", "G", "H", "I", "J", "K", "P", "Q",
            "R", "S", "T", "V"
        ],
        "distance": 0.6999999999999999555910790149937383830547332763671875
    }, {
        "state": "CA",
        "locType": "branch",
        "label": "Van Ness and McAllister",
        "address": "500 Van Ness Ave",
        "city": "San Francisco",
        "zip": "94102",
        "name": "Van Ness and McAllister",
        "lat": "37.78013",
        "lng": "-122.42023",
        "bank": "Chase",
        "type": "Freestanding",
        "lobbyHrs": ["", "9:00-6:00", "9:00-6:00", "9:00-6:00",
            "9:00-6:00", "9:00-6:00", "9:00-4:00"
        ],
        "driveUpHrs": ["", "", "", "", "", "", ""],
        "atms": 2,
        "services": [],
        "phone": "4156261458",
        "distance": 0.6999999999999999555910790149937383830547332763671875
    }, {
        "state": "CA",
        "locType": "branch",
        "label": "Potrero",
        "address": "2300 16Th St, Ste 290",
        "city": "San Francisco",
        "zip": "94103",
        "name": "Potrero",
        "lat": "37.766062",
        "lng": "-122.408114",
        "bank": "Chase",
        "type": "In-Line",
        "lobbyHrs": ["", "9:00-6:00", "9:00-6:00", "9:00-6:00",
            "9:00-6:00", "9:00-6:00", "9:00-4:00"
        ],
        "driveUpHrs": ["", "", "", "", "", "", ""],
        "atms": 3,
        "services": [],
        "phone": "4157030443",
        "distance": 0.6999999999999999555910790149937383830547332763671875
    }, {
        "state": "CA",
        "locType": "atm",
        "label": "Cvs",
        "address": "2280 MARKET ST",
        "city": "SAN FRANCISCO",
        "zip": "94114",
        "name": "Cvs",
        "lat": "37.764136",
        "lng": "-122.433321",
        "bank": "Chase",
        "access": "LOBBY",
        "services": ["Cash Dispenser", "Limited"],
        "languages": [""],
        "distance": 0.82999999999999996003197111349436454474925994873046875
    }, {
        "state": "CA",
        "locType": "atm",
        "label": "Cvs",
        "address": "1101 MARKET ST",
        "city": "SAN FRANCISCO",
        "zip": "94103",
        "name": "Cvs",
        "lat": "37.780464",
        "lng": "-122.412524",
        "bank": "Chase",
        "access": "LOBBY",
        "services": ["Cash Dispenser", "Audio-assisted ATM", "Limited"],
        "languages": [""],
        "distance": 0.82999999999999996003197111349436454474925994873046875
    }, {
        "state": "CA",
        "locType": "branch",
        "label": "Mission and 21st",
        "address": "2500 Mission St",
        "city": "San Francisco",
        "zip": "94110",
        "name": "Mission and 21st",
        "lat": "37.756941",
        "lng": "-122.419206",
        "bank": "Chase",
        "type": "Freestanding",
        "lobbyHrs": ["", "9:00-6:00", "9:00-6:00", "9:00-6:00",
            "9:00-6:00", "9:00-6:00", "9:00-4:00"
        ],
        "driveUpHrs": ["", "", "", "", "", "", ""],
        "atms": 2,
        "services": [],
        "phone": "4156478069",
        "distance": 0.90000000000000002220446049250313080847263336181640625
    }, {
        "state": "CA",
        "locType": "branch",
        "label": "Divisadero and Oak",
        "address": "401 Divisadero St",
        "city": "San Francisco",
        "zip": "94117",
        "name": "Divisadero and Oak",
        "lat": "37.77338",
        "lng": "-122.43747",
        "bank": "Chase",
        "type": "In-Line",
        "lobbyHrs": ["", "9:00-6:00", "9:00-6:00", "9:00-6:00",
            "9:00-6:00", "9:00-6:00", "9:00-4:00"
        ],
        "driveUpHrs": ["", "", "", "", "", "", ""],
        "atms": 2,
        "services": [],
        "phone": "4155525245",
        "distance": 0.979999999999999982236431605997495353221893310546875
    }, {
        "state": "CA",
        "locType": "atm",
        "label": "Mollie Stone Castro",
        "address": "4201 18TH ST",
        "city": "SAN FRANCISCO",
        "zip": "94114",
        "name": "Mollie Stone Castro",
        "lat": "37.760771",
        "lng": "-122.436414",
        "bank": "Chase",
        "access": "WALK UP",
        "services": ["Deposit ATM", "Audio-assisted ATM",
            "Deposit-friendly", "Limited"
        ],
        "languages": ["C", "E", "F", "G", "H", "I", "J", "K", "P", "Q",
            "R", "S", "T", "V"
        ],
        "distance": 1.100000000000000088817841970012523233890533447265625
    }, {
        "state": "CA",
        "locType": "atm",
        "label": "San Francisco Centre",
        "address": "865 MARKET ST",
        "city": "SAN FRANCISCO",
        "zip": "94103",
        "name": "San Francisco Centre",
        "lat": "37.784316",
        "lng": "-122.407564",
        "bank": "Chase",
        "access": "WALK UP",
        "services": ["Cash Dispenser", "Audio-assisted ATM", "Limited"],
        "languages": ["C", "E", "F", "G", "H", "I", "J", "K", "P", "Q",
            "R", "S", "T", "V"
        ],
        "distance": 1.1999999999999999555910790149937383830547332763671875
    }, {
        "state": "CA",
        "locType": "atm",
        "label": "Cvs",
        "address": "1285 SUTTER ST",
        "city": "SAN FRANCISCO",
        "zip": "94109",
        "name": "Cvs",
        "lat": "37.787336",
        "lng": "-122.421184",
        "bank": "Chase",
        "access": "LOBBY",
        "services": ["Cash Dispenser", "Limited"],
        "languages": [""],
        "distance": 1.1999999999999999555910790149937383830547332763671875
    }]
}